{"Green Line B": [{"name": "Boston College", "stop_id": "place-lake", "latitude": 42.340081, "longitude": -71.166769, "address": "Commonwealth Ave and Lake St, Boston, MA 02135", "coffee_shops": [{"name": "Fuel America", "coordinates": {"latitude": 42.34157, "longitude": -71.15413}, "address": ["152 Chestnut Hill Ave", "Brighton, MA 02135"]}, {"name": "Kohi Coffee Company", "coordinates": {"latitude": 42.3567407990429, "longitude": -71.143488609772}, "address": ["130 Guest St", "Brighton, MA 02135"]}]}, {"name": "South Street", "stop_id": "place-sougr", "latitude": 42.3396, "longitude": -71.157661, "address": "43 South Street, Boston, MA", "coffee_shops": [{"name": "Fuel America", "coordinates": {"latitude": 42.34157, "longitude": -71.15413}, "address": ["152 Chestnut Hill Ave", "Brighton, MA 02135"]}, {"name": "4A Coffee", "coordinates": {"latitude": 42.3454841803083, "longitude": -71.1269628862054}, "address": ["419 Harvard St", "Brookline, MA 02446"]}]}], "Green Line C": [{"name": "Cleveland Circle", "stop_id": "place-clmnl", "latitude": 42.336142, "longitude": -71.149326, "address": "Beacon St and Chestnut Hill Ave, Brighton, MA", "coffee_shops": [{"name": "Fuel America", "coordinates": {"latitude": 42.34157, "longitude": -71.15413}, "address": ["152 Chestnut Hill Ave", "Brighton, MA 02135"]}, {"name": "4A Coffee", "coordinates": {"latitude": 42.3454841803083, "longitude": -71.1269628862054}, "address": ["419 Harvard St", "Brookline, MA 02446"]}]}, {"name": "Englewood Avenue", "stop_id": "place-engav", "latitude": 42.336971, "longitude": -71.14566, "address": "Beacon St and Englewood Ave, Brookline, MA", "coffee_shops": [{"name": "4A Coffee", "coordinates": {"latitude": 42.3454841803083, "longitude": -71.1269628862054}, "address": ["419 Harvard St", "Brookline, MA 02446"]}, {"name": "Kohi Coffee Company", "coordinates": {"latitude": 42.3567407990429, "longitude": -71.143488609772}, "address": ["130 Guest St", "Brighton, MA 02135"]}]}], "Green Line D": [{"name": "Government Center", "stop_id": "place-gover", "latitude": 42.359705, "longitude": -71.059215, "address": "Cambridge St and Court St, Boston, MA", "coffee_shops": [{"name": "Tradesman Coffee Shop & Lounge", "coordinates": {"latitude": 42.360092, "longitude": -71.058883}, "address": ["89 Broad St", "Boston, MA 02110"]}, {"name": "Ogawa Coffee", "coordinates": {"latitude": 42.3568572843331, "longitude": -71.0580796438568}, "address": ["10 Milk St", "Boston, MA 02108"]}]}, {"name": "Park Street", "stop_id": "place-pktrm", "latitude": 42.356395, "longitude": -71.062424, "address": "Tremont St and Winter St, Boston, MA 02108", "coffee_shops": [{"name": "Thinking Cup", "coordinates": {"latitude": 42.3539, "longitude": -71.06372}, "address": ["165 Tremont St", "Boston, MA 02111"]}, {"name": "Ogawa Coffee", "coordinates": {"latitude": 42.3568572843331, "longitude": -71.0580796438568}, "address": ["10 Milk St", "Boston, MA 02108"]}]}], "Green Line E": [{"name": "Heath Street", "stop_id": "place-hsmnl", "latitude": 42.328316, "longitude": -71.110252, "address": "Heath St and South Huntington Ave, Boston, MA", "coffee_shops": [{"name": "Kookoo Caf\u00e9", "coordinates": {"latitude": 42.332551185059, "longitude": -71.11787679531}, "address": ["7 Station St", "Brookline, MA 02445"]}, {"name": "4A Coffee", "coordinates": {"latitude": 42.3454841803083, "longitude": -71.1269628862054}, "address": ["419 Harvard St", "Brookline, MA 02446"]}]}, {"name": "Back of the Hill", "stop_id": "place-bckhl", "latitude": 42.330139, "longitude": -71.111313, "address": "100 S Huntington Ave, Boston, MA 02130", "coffee_shops": [{"name": "Kookoo Caf\u00e9", "coordinates": {"latitude": 42.332551185059, "longitude": -71.11787679531}, "address": ["7 Station St", "Brookline, MA 02445"]}, {"name": "Solid Ground Cafe", "coordinates": {"latitude": 42.33367, "longitude": -71.10544}, "address": ["742 Huntington Ave", "Boston, MA 02115"]}]}]}
